{
"type": "FeatureCollection",
"name": "Localidades Beneficiadas",
"crs": { "type": "name", "properties": { "name": "urn:ogc:def:crs:OGC:1.3:CRS84" } },
"features": [
{ "type": "Feature", "properties": { "NOM_LOC": "CAOBAS", "POBTOT": 1412 }, "geometry": { "type": "Point", "coordinates": [ -89.104166666858134, 18.444166666358626 ] } },
{ "type": "Feature", "properties": { "NOM_LOC": "FRANCISCO VILLA", "POBTOT": 882 }, "geometry": { "type": "Point", "coordinates": [ -88.845833333441533, 18.477500000224893 ] } },
{ "type": "Feature", "properties": { "NOM_LOC": "NICOLÁS BRAVO", "POBTOT": 4011 }, "geometry": { "type": "Point", "coordinates": [ -88.927777777622282, 18.45777777782223 ] } },
{ "type": "Feature", "properties": { "NOM_LOC": "SAN PEDRO PERALTA", "POBTOT": 766 }, "geometry": { "type": "Point", "coordinates": [ -88.856666666633316, 18.700277777697352 ] } },
{ "type": "Feature", "properties": { "NOM_LOC": "LÁZARO CÁRDENAS SEGUNDO", "POBTOT": 699 }, "geometry": { "type": "Point", "coordinates": [ -88.858055555319595, 18.701388889185921 ] } },
{ "type": "Feature", "properties": { "NOM_LOC": "MOROCOY", "POBTOT": 1293 }, "geometry": { "type": "Point", "coordinates": [ -88.810833333691335, 18.602499999975066 ] } },
{ "type": "Feature", "properties": { "NOM_LOC": "NUEVO BÉCAR", "POBTOT": 557 }, "geometry": { "type": "Point", "coordinates": [ -89.130555555494482, 18.724444444255766 ] } },
{ "type": "Feature", "properties": { "NOM_LOC": "DOS HERMANOS", "POBTOT": 1 }, "geometry": { "type": "Point", "coordinates": [ -89.121666666283602, 18.47249999987514 ] } },
{ "type": "Feature", "properties": { "NOM_LOC": "SAN JOSÉ DE LA MONTAÑA", "POBTOT": 195 }, "geometry": { "type": "Point", "coordinates": [ -89.013055555369533, 18.373333333466633 ] } },
{ "type": "Feature", "properties": { "NOM_LOC": "VERACRUZ", "POBTOT": 148 }, "geometry": { "type": "Point", "coordinates": [ -89.08888888861128, 18.736388888936119 ] } },
{ "type": "Feature", "properties": { "NOM_LOC": "CALIFORNIA", "POBTOT": 44 }, "geometry": { "type": "Point", "coordinates": [ -89.061944444680364, 18.769166666608442 ] } },
{ "type": "Feature", "properties": { "NOM_LOC": "EMILIANO ZAPATA", "POBTOT": 3 }, "geometry": { "type": "Point", "coordinates": [ -88.907222221828022, 18.466111110839165 ] } },
{ "type": "Feature", "properties": { "NOM_LOC": "EL CEDRAL", "POBTOT": 284 }, "geometry": { "type": "Point", "coordinates": [ -88.975833333541459, 18.7027777778722 ] } },
{ "type": "Feature", "properties": { "NOM_LOC": "SEIS HERMANOS (EL RANCHITO)", "POBTOT": 7 }, "geometry": { "type": "Point", "coordinates": [ -88.889166667107986, 18.459444444605481 ] } },
{ "type": "Feature", "properties": { "NOM_LOC": "EL PUENTE", "POBTOT": 2 }, "geometry": { "type": "Point", "coordinates": [ -89.037777778121949, 18.46083333329176 ] } },
{ "type": "Feature", "properties": { "NOM_LOC": "LOS TRES HERMANOS", "POBTOT": 1 }, "geometry": { "type": "Point", "coordinates": [ -88.815555555944115, 18.578055555319679 ] } },
{ "type": "Feature", "properties": { "NOM_LOC": "EL MANGUITO", "POBTOT": 5 }, "geometry": { "type": "Point", "coordinates": [ -88.814444444455489, 18.579444444005958 ] } },
{ "type": "Feature", "properties": { "NOM_LOC": "TRES HERMANOS", "POBTOT": 4 }, "geometry": { "type": "Point", "coordinates": [ -89.050555555294579, 18.75583333324181 ] } },
{ "type": "Feature", "properties": { "NOM_LOC": "EL CEDRALITO", "POBTOT": 11 }, "geometry": { "type": "Point", "coordinates": [ -89.105833333641385, 18.468333332917041 ] } },
{ "type": "Feature", "properties": { "NOM_LOC": "EL RESBALÓN", "POBTOT": 1 }, "geometry": { "type": "Point", "coordinates": [ -89.009722221803031, 18.400000000199896 ] } },
{ "type": "Feature", "properties": { "NOM_LOC": "EL BARRANCO", "POBTOT": 2 }, "geometry": { "type": "Point", "coordinates": [ -89.067500000324742, 18.517222222227815 ] } },
{ "type": "Feature", "properties": { "NOM_LOC": "NINGUNO [ESTACIÓN DE MICROONDAS]", "POBTOT": 1 }, "geometry": { "type": "Point", "coordinates": [ -88.990555555594369, 18.456111111038979 ] } },
{ "type": "Feature", "properties": { "NOM_LOC": "VEINTIDÓS DE OCTUBRE", "POBTOT": 1 }, "geometry": { "type": "Point", "coordinates": [ -88.971388888486388, 18.549166666508484 ] } },
{ "type": "Feature", "properties": { "NOM_LOC": "EL IMÁN", "POBTOT": 2 }, "geometry": { "type": "Point", "coordinates": [ -88.954722222452574, 18.597777777722342 ] } },
{ "type": "Feature", "properties": { "NOM_LOC": "GRACIANO BALAM DZUL", "POBTOT": 1 }, "geometry": { "type": "Point", "coordinates": [ -89.019444444405565, 18.404444444355647 ] } },
{ "type": "Feature", "properties": { "NOM_LOC": "MIGUEL LÓPEZ DOMÍNGUEZ", "POBTOT": 2 }, "geometry": { "type": "Point", "coordinates": [ -88.784722222252697, 18.588888888511462 ] } },
{ "type": "Feature", "properties": { "NOM_LOC": "LA PASADITA", "POBTOT": 4 }, "geometry": { "type": "Point", "coordinates": [ -89.095555555744284, 18.469166666308638 ] } },
{ "type": "Feature", "properties": { "NOM_LOC": "RAMÓN GARCÍA GÓMEZ", "POBTOT": 2 }, "geometry": { "type": "Point", "coordinates": [ -89.095833332941936, 18.469999999700292 ] } },
{ "type": "Feature", "properties": { "NOM_LOC": "EL ROBLE", "POBTOT": 2 }, "geometry": { "type": "Point", "coordinates": [ -89.100277777997007, 18.450000000099976 ] } },
{ "type": "Feature", "properties": { "NOM_LOC": "ALTAMIRA", "POBTOT": 4 }, "geometry": { "type": "Point", "coordinates": [ -89.082222222377595, 18.736944444230744 ] } },
{ "type": "Feature", "properties": { "NOM_LOC": "CHAPARRAL", "POBTOT": 1 }, "geometry": { "type": "Point", "coordinates": [ -88.800833332991886, 18.628888888611357 ] } },
{ "type": "Feature", "properties": { "NOM_LOC": "RANCHO ALEGRE", "POBTOT": 6 }, "geometry": { "type": "Point", "coordinates": [ -88.989722222202772, 18.704166666558478 ] } },
{ "type": "Feature", "properties": { "NOM_LOC": "EL PORVENIR", "POBTOT": 2 }, "geometry": { "type": "Point", "coordinates": [ -88.815277777847143, 18.617500000124949 ] } },
{ "type": "Feature", "properties": { "NOM_LOC": "LA PROVIDENCIA", "POBTOT": 2 }, "geometry": { "type": "Point", "coordinates": [ -88.986944444830215, 18.713055555769358 ] } },
{ "type": "Feature", "properties": { "NOM_LOC": "NICOLÁS BRAVO", "POBTOT": 7 }, "geometry": { "type": "Point", "coordinates": [ -88.934722221952939, 18.452777777472477 ] } },
{ "type": "Feature", "properties": { "NOM_LOC": "LOS CASCABELES", "POBTOT": 1 }, "geometry": { "type": "Point", "coordinates": [ -88.871666666783199, 18.466111110839165 ] } },
{ "type": "Feature", "properties": { "NOM_LOC": "EL SACRIFICIO", "POBTOT": 3 }, "geometry": { "type": "Point", "coordinates": [ -88.920555555194653, 18.419999999800211 ] } },
{ "type": "Feature", "properties": { "NOM_LOC": "LA UNIÓN", "POBTOT": 1 }, "geometry": { "type": "Point", "coordinates": [ -88.91166666688315, 18.387500000224861 ] } },
{ "type": "Feature", "properties": { "NOM_LOC": "EL CERRO", "POBTOT": 3 }, "geometry": { "type": "Point", "coordinates": [ -88.794166666758201, 18.638333333116861 ] } },
{ "type": "Feature", "properties": { "NOM_LOC": "LOS TRES ASES", "POBTOT": 1 }, "geometry": { "type": "Point", "coordinates": [ -89.102222221977911, 18.523333333166818 ] } },
{ "type": "Feature", "properties": { "NOM_LOC": "EL GAUCHO", "POBTOT": 5 }, "geometry": { "type": "Point", "coordinates": [ -88.927222222327657, 18.4477777780221 ] } },
{ "type": "Feature", "properties": { "NOM_LOC": "LA PERLA", "POBTOT": 1 }, "geometry": { "type": "Point", "coordinates": [ -88.906944444630369, 18.416944444330682 ] } },
{ "type": "Feature", "properties": { "NOM_LOC": "PROGRESO", "POBTOT": 1 }, "geometry": { "type": "Point", "coordinates": [ -88.901388888985991, 18.458333333116855 ] } },
{ "type": "Feature", "properties": { "NOM_LOC": "ARAGÓN", "POBTOT": 2 }, "geometry": { "type": "Point", "coordinates": [ -89.10944444440554, 18.470833333091889 ] } },
{ "type": "Feature", "properties": { "NOM_LOC": "LAS AURORAS", "POBTOT": 4 }, "geometry": { "type": "Point", "coordinates": [ -88.833055555369526, 18.463888888761232 ] } },
{ "type": "Feature", "properties": { "NOM_LOC": "EL COCAL", "POBTOT": 18 }, "geometry": { "type": "Point", "coordinates": [ -88.887500000324735, 18.459722221803133 ] } },
{ "type": "Feature", "properties": { "NOM_LOC": "LOS GONZÁLEZ", "POBTOT": 2 }, "geometry": { "type": "Point", "coordinates": [ -89.037777778121949, 18.435277778047066 ] } },
{ "type": "Feature", "properties": { "NOM_LOC": "LA GÜERA", "POBTOT": 5 }, "geometry": { "type": "Point", "coordinates": [ -89.104722222152816, 18.470277777797264 ] } },
{ "type": "Feature", "properties": { "NOM_LOC": "NINGUNO", "POBTOT": 4 }, "geometry": { "type": "Point", "coordinates": [ -88.948611111513571, 18.460277777997135 ] } },
{ "type": "Feature", "properties": { "NOM_LOC": "NINGUNO", "POBTOT": 1 }, "geometry": { "type": "Point", "coordinates": [ -88.979166667107961, 18.565277778146992 ] } },
{ "type": "Feature", "properties": { "NOM_LOC": "NINGUNO", "POBTOT": 1 }, "geometry": { "type": "Point", "coordinates": [ -89.080277777497372, 18.467500000424707 ] } },
{ "type": "Feature", "properties": { "NOM_LOC": "NINGUNO", "POBTOT": 3 }, "geometry": { "type": "Point", "coordinates": [ -88.827777777822178, 18.479166667008144 ] } },
{ "type": "Feature", "properties": { "NOM_LOC": "LUZ BALAM", "POBTOT": 2 }, "geometry": { "type": "Point", "coordinates": [ -88.988888888811118, 18.529166666908225 ] } },
{ "type": "Feature", "properties": { "NOM_LOC": "LOS MANGOS", "POBTOT": 11 }, "geometry": { "type": "Point", "coordinates": [ -88.887500000324735, 18.460555555194787 ] } },
{ "type": "Feature", "properties": { "NOM_LOC": "MIRADOR", "POBTOT": 5 }, "geometry": { "type": "Point", "coordinates": [ -88.936111111538537, 18.503611110764211 ] } },
{ "type": "Feature", "properties": { "NOM_LOC": "MONCHO", "POBTOT": 3 }, "geometry": { "type": "Point", "coordinates": [ -89.093055555569379, 18.48138888908602 ] } },
{ "type": "Feature", "properties": { "NOM_LOC": "EL NARANJO", "POBTOT": 4 }, "geometry": { "type": "Point", "coordinates": [ -88.815555555944115, 18.578888888711276 ] } },
{ "type": "Feature", "properties": { "NOM_LOC": "EL PENSAMIENTO", "POBTOT": 1 }, "geometry": { "type": "Point", "coordinates": [ -88.969999999800109, 18.499166666608403 ] } },
{ "type": "Feature", "properties": { "NOM_LOC": "LAS PIEDRAS", "POBTOT": 1 }, "geometry": { "type": "Point", "coordinates": [ -88.826388889135899, 18.538055555219728 ] } },
{ "type": "Feature", "properties": { "NOM_LOC": "EL POTRILLO", "POBTOT": 5 }, "geometry": { "type": "Point", "coordinates": [ -89.00222222217775, 18.45777777782223 ] } },
{ "type": "Feature", "properties": { "NOM_LOC": "RANCHO CHOLO", "POBTOT": 1 }, "geometry": { "type": "Point", "coordinates": [ -88.953055555669323, 18.486111111338744 ] } },
{ "type": "Feature", "properties": { "NOM_LOC": "VEINTICUATRO DE JULIO", "POBTOT": 3 }, "geometry": { "type": "Point", "coordinates": [ -88.975000000149862, 18.563888888561394 ] } },
{ "type": "Feature", "properties": { "NOM_LOC": "VERMEN", "POBTOT": 2 }, "geometry": { "type": "Point", "coordinates": [ -88.814999999750171, 18.582777777572403 ] } },
{ "type": "Feature", "properties": { "NOM_LOC": "NINGUNO [FAYP]", "POBTOT": 7 }, "geometry": { "type": "Point", "coordinates": [ -89.190833333291664, 18.480555555694366 ] } },
{ "type": "Feature", "properties": { "NOM_LOC": "GUSTAVO DÍAZ ORDAZ (SAN ANTONIO SODA)", "POBTOT": 502 }, "geometry": { "type": "Point", "coordinates": [ -89.13583333304183, 18.418888889210905 ] } },
{ "type": "Feature", "properties": { "NOM_LOC": "NINGUNO", "POBTOT": 1 }, "geometry": { "type": "Point", "coordinates": [ -89.190555555194692, 18.480277777597394 ] } },
{ "type": "Feature", "properties": { "NOM_LOC": "TOMÁS AZNAR BARBACHANO (LA MOZA)", "POBTOT": 169 }, "geometry": { "type": "Point", "coordinates": [ -89.195555555544388, 18.480555555694366 ] } },
{ "type": "Feature", "properties": { "NOM_LOC": "LA TIERRA PROMETIDA", "POBTOT": 3 }, "geometry": { "type": "Point", "coordinates": [ -89.137777777922054, 18.396111111338769 ] } }
]
}
